[
  {
    "title": "C++ : Invention",
    "description": "Bjarne Stroustrup invente le C++ ou plutôt renomme son langage \"C with classes\"",
    "place": "Bell Labs Murray Hill",
    "lng": -74.40209099999998,
    "lat": 40.684287,
    "type": "Ponctual",
    "id": "59292e35-33b2-4350-b323-f128984f84ea",
    "date": "1991-01-01T05:00:00.000Z"
  },
  {
    "title": "Début du développement du C",
    "description": "Brian Kernighan et Dennis Ritchie du C sur un PDP-11",
    "place": "Bells labs",
    "lng": -74.40209099999998,
    "lat": 40.684287,
    "type": "Ponctual",
    "date": "1972-01-01T05:00:00.000Z",
    "id": "8952de10-f6bd-4498-b6d5-b7e438d91478"
  },
  {
    "title": "Java 1.0",
    "place": "Sun Microsystems Santa Clara",
    "lng": -121.95523559999998,
    "lat": 37.3541079,
    "type": "Ponctual",
    "date": "1995-01-01T05:00:00.000Z",
    "description": "James Gosling, Mike Sheridan et Patrick Naughton invente Java sur lequel il travail depuis 1991",
    "id": "e014bcaf-1f65-4455-9c8e-c0857dd06ca9"
  },
  {
    "title": "LISP",
    "description": "John McCarthy conçoit le langage LISP pour LISt Processing.",
    "type": "Ponctual",
    "date": "1958-01-01T05:00:00.000Z",
    "place": "MIT  Massachusetts",
    "lng": -71.09415999999999,
    "lat": 42.360091,
    "id": "9df7f7fd-8234-4a66-b81d-27d7b2768184"
  },
  {
    "title": "ML",
    "description": "Robin Milner",
    "place": "university of Edinburgh",
    "lng": -3.189241300000049,
    "lat": 55.9445158,
    "date": "1973-01-01T05:00:00.000Z",
    "type": "Ponctual",
    "id": "e061ea2d-801e-4c43-9c05-f9e3fe24d15b"
  },
  {
    "title": "C#",
    "place": "Microsoft Redmond",
    "lng": -122.13013710000001,
    "lat": 47.6447015,
    "type": "Ponctual",
    "date": "2000-01-01T05:00:00.000Z",
    "description": "Anders Hejlsberg",
    "id": "2c3bf0f8-345b-4887-aa66-e3fb6c636fb2"
  },
  {
    "title": "1996",
    "type": "Ponctual",
    "place": "INRIA Rocquencourt",
    "description": "Xavier Leroy",
    "date": "1996-01-01T05:00:00.000Z",
    "lng": 2.110761899999943,
    "lat": 48.837144,
    "id": "c09c2229-e9a9-4204-b3aa-7fd14296b8de"
  },
  {
    "title": "Python",
    "description": "Guido van Rossum",
    "place": "CWI netherlands",
    "lng": 4.952115400000025,
    "lat": 52.356522,
    "type": "Ponctual",
    "date": "1989-12-01T05:00:00.000Z",
    "id": "b5a1549d-5fd9-422e-bfb0-ad2dd68f5d0e"
  }
]